id,name.local,name.en,name.slug,code.id,geo.lat,geo.lon
CM007003001,Ako,Ako,ako-cm007003001,CM007003001,6.889,10.694
CM007003002,Misaje,Misaje,misaje-cm007003002,CM007003002,6.694,10.554
CM007003003,Ndu,Ndu,ndu-cm007003003,CM007003003,6.425,10.798
CM007003004,Nkambe,Nkambe,nkambe-cm007003004,CM007003004,6.553,10.746
CM007003005,Nwa,Nwa,nwa-cm007003005,CM007003005,6.529,10.993
