id,name.local,name.en,name.slug,code.id,geo.lat,geo.lon
CM007002001,Jakiri,Jakiri,jakiri-cm007002001,CM007002001,6.09,10.649
CM007002002,Kumbo,Kumbo,kumbo-cm007002002,CM007002002,6.207,10.705
CM007002003,Mbven,Mbven,mbven-cm007002003,CM007002003,6.138,10.885
CM007002004,Nkum,Nkum,nkum-cm007002004,CM007002004,6.324,10.773
CM007002005,Noni,Noni,noni-cm007002005,CM007002005,6.369,10.598
CM007002006,Oku,Oku,oku-cm007002006,CM007002006,6.203,10.533
